{
    "states": [
        {
            "id": 2212,
            "name": "Adana",
            "state_code": "01",
            "latitude": "37.26123150",
            "longitude": "35.39050460"
        },
        {
            "id": 2155,
            "name": "Adıyaman",
            "state_code": "02",
            "latitude": "37.90782910",
            "longitude": "38.48499230"
        },
        {
            "id": 2179,
            "name": "Afyonkarahisar",
            "state_code": "03",
            "latitude": "38.73910990",
            "longitude": "30.71200230"
        },
        {
            "id": 2193,
            "name": "Ağrı",
            "state_code": "04",
            "latitude": "39.62692180",
            "longitude": "43.02159650"
        },
        {
            "id": 2161,
            "name": "Amasya",
            "state_code": "05",
            "latitude": "40.65166080",
            "longitude": "35.90379660"
        },
        {
            "id": 2217,
            "name": "Ankara",
            "state_code": "06",
            "latitude": "39.78052450",
            "longitude": "32.71813750"
        },
        {
            "id": 2169,
            "name": "Antalya",
            "state_code": "07",
            "latitude": "37.09516720",
            "longitude": "31.07937050"
        },
        {
            "id": 2191,
            "name": "Artvin",
            "state_code": "08",
            "latitude": "41.07866400",
            "longitude": "41.76282230"
        },
        {
            "id": 2187,
            "name": "Aydın",
            "state_code": "09",
            "latitude": "37.81170330",
            "longitude": "28.48639630"
        },
        {
            "id": 2175,
            "name": "Balıkesir",
            "state_code": "10",
            "latitude": "39.76167820",
            "longitude": "28.11226790"
        },
        {
            "id": 2221,
            "name": "Bilecik",
            "state_code": "11",
            "latitude": "40.05665550",
            "longitude": "30.06652360"
        },
        {
            "id": 2153,
            "name": "Bingöl",
            "state_code": "12",
            "latitude": "39.06263540",
            "longitude": "40.76960950"
        },
        {
            "id": 2215,
            "name": "Bitlis",
            "state_code": "13",
            "latitude": "38.65231330",
            "longitude": "42.42020280"
        },
        {
            "id": 2172,
            "name": "Bolu",
            "state_code": "14",
            "latitude": "40.57597660",
            "longitude": "31.57880860"
        },
        {
            "id": 2209,
            "name": "Burdur",
            "state_code": "15",
            "latitude": "37.46126690",
            "longitude": "30.06652360"
        },
        {
            "id": 2163,
            "name": "Bursa",
            "state_code": "16",
            "latitude": "40.06554590",
            "longitude": "29.23207840"
        },
        {
            "id": 2216,
            "name": "Çanakkale",
            "state_code": "17",
            "latitude": "40.05101040",
            "longitude": "26.98524220"
        },
        {
            "id": 2168,
            "name": "Çankırı",
            "state_code": "18",
            "latitude": "40.53690730",
            "longitude": "33.58838930"
        },
        {
            "id": 2173,
            "name": "Çorum",
            "state_code": "19",
            "latitude": "40.49982110",
            "longitude": "34.59862630"
        },
        {
            "id": 2157,
            "name": "Denizli",
            "state_code": "20",
            "latitude": "37.61283950",
            "longitude": "29.23207840"
        },
        {
            "id": 2226,
            "name": "Diyarbakır",
            "state_code": "21",
            "latitude": "38.10663720",
            "longitude": "40.54268960"
        },
        {
            "id": 2151,
            "name": "Edirne",
            "state_code": "22",
            "latitude": "41.15172220",
            "longitude": "26.51379640"
        },
        {
            "id": 2159,
            "name": "Elazığ",
            "state_code": "23",
            "latitude": "38.49648040",
            "longitude": "39.21990290"
        },
        {
            "id": 2160,
            "name": "Erzincan",
            "state_code": "24",
            "latitude": "39.76819140",
            "longitude": "39.05013060"
        },
        {
            "id": 2165,
            "name": "Erzurum",
            "state_code": "25",
            "latitude": "40.07467990",
            "longitude": "41.66945620"
        },
        {
            "id": 2164,
            "name": "Eskişehir",
            "state_code": "26",
            "latitude": "39.63296570",
            "longitude": "31.26263660"
        },
        {
            "id": 2203,
            "name": "Gaziantep",
            "state_code": "27",
            "latitude": "37.07638820",
            "longitude": "37.38272340"
        },
        {
            "id": 2186,
            "name": "Giresun",
            "state_code": "28",
            "latitude": "40.64616720",
            "longitude": "38.59355110"
        },
        {
            "id": 2204,
            "name": "Gümüşhane",
            "state_code": "29",
            "latitude": "40.28036730",
            "longitude": "39.31432530"
        },
        {
            "id": 2190,
            "name": "Hakkâri",
            "state_code": "30",
            "latitude": "37.44593190",
            "longitude": "43.74498410"
        },
        {
            "id": 2211,
            "name": "Hatay",
            "state_code": "31",
            "latitude": "36.40184880",
            "longitude": "36.34980970"
        },
        {
            "id": 2222,
            "name": "Isparta",
            "state_code": "32",
            "latitude": "38.02114640",
            "longitude": "31.07937050"
        },
        {
            "id": 2170,
            "name": "İstanbul",
            "state_code": "34",
            "latitude": "41.16343020",
            "longitude": "28.76644080"
        },
        {
            "id": 2205,
            "name": "İzmir",
            "state_code": "35",
            "latitude": "38.35916930",
            "longitude": "27.26761160"
        },
        {
            "id": 2210,
            "name": "Aksaray",
            "state_code": "68",
            "latitude": "38.33520430",
            "longitude": "33.97500180"
        },
        {
            "id": 2185,
            "name": "Ardahan",
            "state_code": "75",
            "latitude": "41.11129640",
            "longitude": "42.78316740"
        },
        {
            "id": 2148,
            "name": "Bartın",
            "state_code": "74",
            "latitude": "41.58105090",
            "longitude": "32.46097940"
        },
        {
            "id": 2194,
            "name": "Batman",
            "state_code": "72",
            "latitude": "37.83624960",
            "longitude": "41.36057390"
        },
        {
            "id": 2177,
            "name": "Bayburt",
            "state_code": "69",
            "latitude": "40.26032000",
            "longitude": "40.22804800"
        },
        {
            "id": 2202,
            "name": "Düzce",
            "state_code": "81",
            "latitude": "40.87705310",
            "longitude": "31.31927130"
        },
        {
            "id": 2166,
            "name": "Iğdır",
            "state_code": "76",
            "latitude": "39.88798410",
            "longitude": "44.00483650"
        },
        {
            "id": 2227,
            "name": "Kahramanmaraş",
            "state_code": "46",
            "latitude": "37.75030360",
            "longitude": "36.95410700"
        },
        {
            "id": 2223,
            "name": "Karabük",
            "state_code": "78",
            "latitude": "41.18748900",
            "longitude": "32.74174190"
        },
        {
            "id": 2184,
            "name": "Karaman",
            "state_code": "70",
            "latitude": "37.24363360",
            "longitude": "33.61757700"
        },
        {
            "id": 2208,
            "name": "Kars",
            "state_code": "36",
            "latitude": "40.28076360",
            "longitude": "42.99195270"
        },
        {
            "id": 2197,
            "name": "Kastamonu",
            "state_code": "37",
            "latitude": "41.41038630",
            "longitude": "33.69983340"
        },
        {
            "id": 2200,
            "name": "Kayseri",
            "state_code": "38",
            "latitude": "38.62568540",
            "longitude": "35.74068820"
        },
        {
            "id": 2154,
            "name": "Kilis",
            "state_code": "79",
            "latitude": "36.82047750",
            "longitude": "37.16873390"
        },
        {
            "id": 2178,
            "name": "Kırıkkale",
            "state_code": "71",
            "latitude": "39.88768780",
            "longitude": "33.75552480"
        },
        {
            "id": 2176,
            "name": "Kırklareli",
            "state_code": "39",
            "latitude": "41.72597950",
            "longitude": "27.48383900"
        },
        {
            "id": 2180,
            "name": "Kırşehir",
            "state_code": "40",
            "latitude": "39.22689050",
            "longitude": "33.97500180"
        },
        {
            "id": 2195,
            "name": "Kocaeli",
            "state_code": "41",
            "latitude": "40.85327040",
            "longitude": "29.88152030"
        },
        {
            "id": 2171,
            "name": "Konya",
            "state_code": "42",
            "latitude": "37.98381340",
            "longitude": "32.71813750"
        },
        {
            "id": 2149,
            "name": "Kütahya",
            "state_code": "43",
            "latitude": "39.35813700",
            "longitude": "29.60354950"
        },
        {
            "id": 2158,
            "name": "Malatya",
            "state_code": "44",
            "latitude": "38.40150570",
            "longitude": "37.95362980"
        },
        {
            "id": 2198,
            "name": "Manisa",
            "state_code": "45",
            "latitude": "38.84193730",
            "longitude": "28.11226790"
        },
        {
            "id": 2224,
            "name": "Mardin",
            "state_code": "47",
            "latitude": "37.34429290",
            "longitude": "40.61964870"
        },
        {
            "id": 2156,
            "name": "Mersin",
            "state_code": "33",
            "latitude": "36.81208580",
            "longitude": "34.64147500"
        },
        {
            "id": 2182,
            "name": "Muğla",
            "state_code": "48",
            "latitude": "37.18358190",
            "longitude": "28.48639630"
        },
        {
            "id": 2162,
            "name": "Muş",
            "state_code": "49",
            "latitude": "38.94618880",
            "longitude": "41.75389310"
        },
        {
            "id": 2196,
            "name": "Nevşehir",
            "state_code": "50",
            "latitude": "38.69393990",
            "longitude": "34.68565090"
        },
        {
            "id": 2189,
            "name": "Niğde",
            "state_code": "51",
            "latitude": "38.09930860",
            "longitude": "34.68565090"
        },
        {
            "id": 2174,
            "name": "Ordu",
            "state_code": "52",
            "latitude": "40.79905800",
            "longitude": "37.38990050"
        },
        {
            "id": 2214,
            "name": "Osmaniye",
            "state_code": "80",
            "latitude": "37.21302580",
            "longitude": "36.17626150"
        },
        {
            "id": 2219,
            "name": "Rize",
            "state_code": "53",
            "latitude": "40.95814970",
            "longitude": "40.92269850"
        },
        {
            "id": 2150,
            "name": "Sakarya",
            "state_code": "54",
            "latitude": "40.78885500",
            "longitude": "30.40595400"
        },
        {
            "id": 2220,
            "name": "Samsun",
            "state_code": "55",
            "latitude": "41.18648590",
            "longitude": "36.13226780"
        },
        {
            "id": 2183,
            "name": "Şanlıurfa",
            "state_code": "63",
            "latitude": "37.35691020",
            "longitude": "39.15436770"
        },
        {
            "id": 2207,
            "name": "Siirt",
            "state_code": "56",
            "latitude": "37.86588620",
            "longitude": "42.14945230"
        },
        {
            "id": 4854,
            "name": "Sinop",
            "state_code": "57",
            "latitude": "41.55947490",
            "longitude": "34.85805320"
        },
        {
            "id": 2181,
            "name": "Sivas",
            "state_code": "58",
            "latitude": "39.44880390",
            "longitude": "37.12944970"
        },
        {
            "id": 2225,
            "name": "Şırnak",
            "state_code": "73",
            "latitude": "37.41874810",
            "longitude": "42.49183380"
        },
        {
            "id": 2167,
            "name": "Tekirdağ",
            "state_code": "59",
            "latitude": "41.11212270",
            "longitude": "27.26761160"
        },
        {
            "id": 2199,
            "name": "Tokat",
            "state_code": "60",
            "latitude": "40.39027130",
            "longitude": "36.62518630"
        },
        {
            "id": 2206,
            "name": "Trabzon",
            "state_code": "61",
            "latitude": "40.79924100",
            "longitude": "39.58479440"
        },
        {
            "id": 2192,
            "name": "Tunceli",
            "state_code": "62",
            "latitude": "39.30735540",
            "longitude": "39.43877780"
        },
        {
            "id": 2201,
            "name": "Uşak",
            "state_code": "64",
            "latitude": "38.54313190",
            "longitude": "29.23207840"
        },
        {
            "id": 2152,
            "name": "Van",
            "state_code": "65",
            "latitude": "38.36794170",
            "longitude": "43.71827870"
        },
        {
            "id": 2218,
            "name": "Yalova",
            "state_code": "77",
            "latitude": "40.57759860",
            "longitude": "29.20883030"
        },
        {
            "id": 2188,
            "name": "Yozgat",
            "state_code": "66",
            "latitude": "39.72719790",
            "longitude": "35.10778580"
        },
        {
            "id": 2213,
            "name": "Zonguldak",
            "state_code": "67",
            "latitude": "41.31249170",
            "longitude": "31.85982510"
        }
    ]
}